Waterbody Name,Latitude,Longitude,Collection Date,Level 3 Ecoregion
Arkabutula Creek,34.64436111,-90.18088889,1/23/2001,74
Horn Lake Creek,34.98355556,-90.05727778,1/22/2001,74
Camp Creek Canal,34.80160757,-89.89002859,1/28/2001,74
Pigeon Roost Creek,34.83022222,-89.82166667,1/27/2001,74
Short Fork Creek,34.80088889,-89.896,1/26/2001,74
Arkabutla Creek,34.65052778,-90.06619444,1/26/2001,74
Hickahala Creek,34.64130556,-89.80513889,1/25/2001,74
Greasy Creek,34.50833333,-89.71777778,1/27/2001,65
Tippah River,34.66533333,-89.30783333,3/5/2001,65
Little Spring Creek,34.57213889,-89.47352778,3/5/2001,65
Little Mud Creek,34.47994444,-89.09994444,1/14/2001,65
Hurricane Creek,34.457944,-89.543556,2/5/2001,65
Puskus Creek,34.40819444,-89.37622222,1/13/2001,65
Little Tallahatchie River,34.48063889,-89.22194444,1/13/2001,65
Mitchell Creek,34.48463889,-89.20105556,1/13/2001,65
Little Hatchie River,34.749,-88.83452778,2/1/2001,65
Picken's Branch,34.8565,-88.19305556,1/24/2001,65
Bridge Creek,34.8935,-88.54625,1/27/2001,65
Parmicha Creek,34.84211111,-88.52986111,1/27/2001,65
Bear Creek,34.56316667,-88.18927778,3/6/2001,65
Bear Creek,34.63666667,-88.15338333,3/6/2001,65
Rock Creek,34.51011111,-88.29663889,1/25/2001,65
Twentymile Creek,34.43097222,-88.54,2/21/2001,65
Big Brown Creek,34.49319444,-88.43663889,3/6/2001,65
Little Brown Creek,34.47172222,-88.42394444,2/20/2001,65
Mackey's Creek,34.43097222,-88.41722222,3/6/2001,65
Hotopha Creek,34.36336111,-89.87830556,1/27/2001,74
Clear Creek,34.35325,-89.6565,1/27/2001,65
Toby Tubby Creek,34.42061111,-89.61386111,2/5/2001,65
McIvor Canal,34.37055556,-90.03047222,2/6/2001,74
Long Creek,34.21452778,-89.98036111,2/6/2001,74
unnamed trib to Yocona River,34.17255556,-90.03616667,2/6/2001,74
Duncans Creek,34.33755556,-89.1525,1/16/2001,65
Yocona River,34.27422222,-89.51841667,1/27/2001,65
Duncan's Creek,34.32858333,-89.23655556,1/16/2001,65
Turkey Creek,34.0385,-89.60161111,2/8/2001,65
Skuna River Canal,34.05327778,-89.09611111,1/15/2001,65
Persimmon Creek,34.01583333,-89.42675,2/7/2001,65
Lucknuck Creek,34.05427778,-89.26069444,1/15/2001,65
Johnson-Coles Creek,33.83947222,-89.48211111,3/6/2001,65
Lappatubby Creek,34.34480556,-89.03208333,1/16/2001,65
unnamed trib to Town Creek,34.24966667,-88.70802778,3/6/2001,65
Town Creek,34.05666667,-88.62191667,3/6/2001,65
Twentymile Creek,34.39611111,-88.47166667,3/6/2001,65
Green Creek,34.17427778,-88.40586111,2/19/2001,65
Bull Mnt Creek,34.18311111,-88.30836111,3/7/2001,65
Batupan Bogue,33.76822222,-89.782,3/14/2001,74
Hays Creek,33.34066667,-89.72936111,2/3/2001,74
Peachahala Creek,33.26297222,-89.74413889,2/3/2001,74
Butputter Creek,33.77215,-89.5894,1/27/2001,65
Redgrass Creek,33.74771665,-89.6517,1/28/2001,65
Lewis Creek,33.39469444,-89.64194444,2/4/2001,65
Mulberry Creek,33.52711111,-89.54675,2/22/2001,65
Poplar Creek,33.38594444,-89.55722222,1/26/2001,65
Line Creek,33.59786111,-88.822,3/8/2001,65
Hollis Creek,33.40133333,-88.82822222,2/14/2001,65
Town Creek,33.668,-88.58069444,2/23/2001,65
Yellow Creek,33.57536111,-88.31444444,3/8/2001,65
Yellow Creek,33.17991667,-88.74875,2/6/2001,65
Catalpa Creek,33.49897222,-88.61866667,2/23/2001,65
Harland Creek,33.10052778,-90.1735,2/6/2001,74
Short Creek,32.79227778,-90.40925,2/19/2001,74
Cypress Creek,32.75541667,-90.22633333,2/19/2001,74
Deer Creek,32.7142166,-90.20565,1/16/2001,74
Oneil Creek,32.73744444,-90.49605556,2/14/2001,74
Perry Creek,32.72258333,-90.47208333,2/14/2001,74
Indian Creek,32.6650434,-90.31666667,2/14/2001,74
Walesheba Creek,32.67111111,-90.30152778,2/15/2001,74
Howard Creek,33.12577778,-89.82927778,2/4/2001,74
Big Bywy Canal,33.42494398,-89.43665525,1/10/2001,65
Indian Creek,33.09847222,-89.85016667,2/4/2001,74
Long Creek,33.01438889,-89.83252778,2/5/2001,65
Senesha Creek,32.92291667,-89.79822222,2/7/2001,65
Ellison Creek,32.77158333,-90.10561111,2/15/2001,74
Hughes Creek,33.06397222,-89.04452778,2/1/2001,65
Tallahaga Creek,32.98922222,-89.01486111,2/2/2001,65
Noxapater Creek,32.91858333,-89.06938889,2/22/2001,65
Pinishook Creek,32.88338889,-89.16094444,2/1/2001,65
Owl Creek,32.85308877,-88.94561938,2/6/2001,65
Bogue Chitto Creek,33.09637955,-88.3289567,2/7/2001,65
Shuqualak Creek,32.9637,-88.46175,2/8/2001,65
Bodka Creek,32.76153333,-88.4517,2/8/2001,65
unnamed trib to Pearl River,32.28694444,-90.21930556,1/5/2001,74
Big Creek,32.17755556,-90.27383333,1/5/2001,74
Tilda Bogue Creek,32.66011111,-90.03588889,1/6/2001,74
Hanging Moss Creek,32.36427778,-90.14011111,1/6/2001,74
Richland Creek,32.23327778,-90.11808333,1/5/2001,74
Schockaloe Creek,32.57236111,-89.48077778,1/25/2001,65
Sipsey Creek,32.54155556,-89.35683333,1/24/2001,65
Tallabogue Creek,32.4885,-89.45769444,1/25/2001,65
Okatibbee Creek,32.35186111,-88.75541667,2/15/2001,65
Bostick Branch,32.13130556,-88.79188889,1/15/2001,65
Annas Bottom,31.67841667,-91.36616667,1/5/2001,73
Fairchild's Creek,31.69027778,-91.29244444,1/6/2001,74
St. Catherine Creek,31.51797222,-91.40536111,1/5/2001,74
unnamed trib to Bayou Pierre,31.99338889,-90.79022222,1/9/2001,74
South Fork Coles Creek,31.74362253,-91.18323539,1/6/2001,74
White Oak Creek,32.02988889,-90.67680556,2/13/2001,74
Copiah Creek,31.84688889,-90.16536111,1/10/2001,74
Pegies Creek,31.75916667,-90.15152778,1/22/2001,65
Bahala Creek,31.69077778,-90.12433333,2/7/2001,65
Bowie Creek,31.64505556,-89.75561111,1/7/2001,65
Okatoma Creek,31.65247222,-89.55886111,2/13/2001,65
Tallahala,31.657167,-89.137972,2/23/2001,65
Chickasawhay River,31.97580556,-88.70547222,2/16/2001,65
Five Mile Creek,31.94183333,-88.52177778,2/12/2001,65
Buffalo River - downstream,31.23877778,-91.34111111,1/9/2001,74
Richardson Creek,31.36294444,-91.01994444,2/12/2001,74
West Fork Amite River (upper),31.16911111,-90.84519444,3/19/2001,74
Bogue Chitto,31.43783333,-90.44616667,3/19/2001,74
Little Tangipahoa River (upper),31.224193,-90.476424,2/13/2001,74
Little Tangipahoa River (lower),31.14363889,-90.45577778,1/5/2001,65
Tickfaw River (upper),31.02383333,-90.64413889,2/11/2001,65
Bowie Creek,31.43441667,-89.43455556,2/15/2001,65
Black Creek,31.19255556,-89.38116667,2/14/2001,65
Black Creek,31.0565,-89.2185,2/6/2001,65
Thompson Creek,31.35688889,-88.92383333,2/11/2001,65
Bogue Homo Creek,31.26184097,-89.00720416,2/6/2001,65
Leaf River,31.22655556,-89.08844444,2/8/2001,65
Thompson Creek,31.26708333,-88.90772222,2/15/2001,65
Atkinson Creek,31.14183333,-88.80038889,2/4/2001,65
Moran Creek,30.68519444,-89.55411111,1/13/2001,65
West Hobolochitto Creek,30.59297222,-89.69422222,2/22/2001,75
Catahoula Creek,30.40633333,-89.50063889,2/22/2001,75
Dead Tiger Creek,30.4225,-89.55902778,2/22/2001,75
Red Creek,30.77991479,-88.91804986,1/23/2001,65
Red Creek,30.79411111,-89.13916667,1/14/2001,65
Tchoutacabouffa River,30.56213889,-88.88580556,2/2/2001,65
Flat Branch,30.45058333,-89.09541667,1/12/2001,75
Black Creek,30.79821878,-88.77523692,2/21/2001,65
Red Creek,30.73763889,-88.78422222,2/21/2001,65
Luxapalilla Creek,33.55975,-88.31727778,3/8/2001,65
Buttahatchie River,33.790164,-88.315337,3/7/2001,65
Hatchie River,34.94025,-88.78644444,3/7/2001,65
Tuscumbia River Canal,34.93088889,-88.59686111,2/6/2001,65
Bowie Creek,31.47355556,-89.52427778,2/22/2001,65
Chickasawhay River,31.87769444,-88.68741667,2/16/2001,65
Escatawpa River,30.82541667,-88.44783333,2/21/2001,65
East Fork Amite River,31.02986111,-90.7885,3/19/2001,74
Tangipahoa River,31.015,-90.46469444,1/8/2001,65
Bull Mnt Creek,34.24758333,-88.2695,3/7/2001,65
Sucarnoochee River,32.69995,-88.4868,2/9/2001,65
Betsy Creek,33.36227778,-89.69536111,2/3/2001,65
Bates Creek,31.51002845,-91.16903742,1/9/2001,74
Minnehaha Creek,31.14336111,-90.46416667,1/5/2001,65
Tangipahoa River,31.14358333,-90.51725,1/12/2001,65
Bala Chitto Creek,31.00444444,-90.44883333,1/8/2001,65
Terry's Creek,31.017,-90.52688889,2/11/2001,65
Scooba Creek,32.799183,-88.459283,2/9/2001,65
Mud Creek,34.26161111,-88.68497222,1/16/2001,65
Cowpenna Creek,34.08991667,-88.60994444,2/18/2001,65
Town Creek,34.14425,-89.63916667,2/8/2001,65
Organ Creek,33.90063333,-89.77823333,1/24/2001,65
Wolf Creek,33.43691667,-89.51105556,2/22/2001,65
Jourdan Creek,33.16777778,-89.80159167,2/4/2001,74
Clear Creek,32.3652166,-90.72826666,1/14/2001,74
Bogue Chitto Creek,32.431664,-90.333909,3/12/2001,74
Lower Little Creek,31.1325,-89.77566667,2/20/2001,65
Grays Creek,34.97058333,-89.27494444,1/17/2001,74
Cypress Creek,34.47577778,-89.26297222,1/13/2001,65
Mud Creek,34.35863889,-89.12825,1/16/2001,65
Potacocowa Creek,33.65408333,-89.95675,3/7/2001,74
Sabougla Creek Canal,33.73788333,-89.47243333,1/27/2001,65
Bear Creek,32.43141667,-90.63380556,1/13/2001,74
East Hobolochitto Creek,30.66044444,-89.55666667,1/13/2001,65
Tuxachanie Creek,30.54536111,-88.95344444,1/13/2001,65
Standing Pine Creek,32.69694444,-89.43908333,1/25/2001,65
Foster Creek,31.8730833,-90.625333,1/30/2002,74
Silver Creek,31.02425,-90.291111,1/23/2002,65
Cascade Creek,31.741222,-90.10752778,1/22/2002,65
Upper Hatchie River,34.970667,-88.7945,2/28/2002,65
Nonconnah,34.98797222,-89.68741667,2/2/2002,74
Mantachie Creek,34.229,-88.45505556,2/1/2002,65
Hurricane Creek,34.87305556,-90.00005556,1/21/2002,74
Topashaw Creek Canal,33.80461111,-89.31344444,1/31/2002,65
James Creek,33.2889,-88.445366,1/29/2002,65
Biloxi River,30.57013703,-89.13836482,1/27/2002,65
Bear Creek,32.67441667,-90.0886944,1/30/2002,74
Kentawka Canal,32.76,-89.1373611,3/5/2002,65
Bayou Delisle,30.39422222,-89.26161111,1/26/2002,75
Spring Creek,33.57269444,-88.563,1/29/2002,65
Magowah Creek,33.3746111,-88.52891667,1/29/2002,65
Kentawka Canal,32.76247222,-89.1385556,3/5/2002,65
Unnamed Tributary in Greens Creek,32.980416,-89.89675,2/5/2002,74
Buntyn Creek,34.125667,-90.063389,1/22/2002,74
Broken Pumpkin Creek,33.257139,-88.351333,1/30/2002,65
Unnamed tributary of Bayou Delisle,30.413028,-89.275222,1/26/2002,65
Unnamed Tributary to Leaf River,31.1806111,-88.91797222,2/4/2002,65
Turkey Creek,33.98408333,-89.6438888,2/1/2002,65
Berry Branch,34.4025,-89.579,2/2/2002,65
Jasper Creek,34.59661111,-89.01080556,3/4/2003,65
Hudson Creek,34.35619444,-89.67680556,2/2/2003,65
Otoucalofa Creek,34.14052778,-89.63547222,2/13/2003,65
Burney Branch,34.28855556,-89.50788889,2/12/2003,65
Pelucia Creek,33.466093,-90.132436,2/19/2003,73
Coila Creek,33.37038333,-90.08753333,2/19/2003,74
Wolf Creek,33.54777778,-89.49016667,1/25/2003,65
McCurtain Creek,33.43319444,-89.37755556,2/20/2003,65
Tesheva Creek,32.97766667,-90.29905556,2/4/2003,73
Apookta Creek,33.11322222,-89.76427778,2/5/2003,65
Kyle Creek,33.18366667,-89.79136111,2/5/2003,74
Box Creek/Green's Creek,32.98136111,-89.91197222,2/5/2003,74
Atwood Creek,33.08680556,-89.68580556,2/5/2003,65
Rhodes Creek,32.10575,-90.28422222,1/26/2003,74
Chunky River,32.22930556,-88.82161111,2/5/2003,65
Horse Branch,31.86761111,-89.01122222,2/19/2003,65
Cars Creek,31.07313889,-90.75838889,2/20/2003,74
Big Creek,31.43475,-90.49227778,2/13/2003,74
Bogue Chitto,31.49505556,-90.44391667,2/12/2003,74
Beaver Creek,31.337,-90.45211111,2/12/2003,74
Leaf River,31.2624753,-89.22683296,1/28/2003,65
Bernard Bayou,30.44466667,-89.137778,2/3/2003,75
East Fork Amite River,31.02827778,-90.79177778,2/19/2003,74
unnamed trib to Big Black,33.06677778,-89.86463889,2/25/2003,74
Nelson Creek,34.48913889,-89.75919444,1/31/2003,65
Humphreys Creek,34.24163889,-89.56633333,2/13/2003,65
Goodwin Creek,34.22786111,-89.59880556,2/13/2003,65
UT to Hurricane Creek,34.83536111,-90.05908333,2/27/2003,74
Moore Creek,33.49927778,-88.43380556,2/13/2003,65
Oak Slush Creek,33.49613889,-88.49344444,2/13/2003,65
Gilmer Creek,33.40575,-88.53205556,2/11/2003,65
Horse Hunter Creek,33.12061111,-88.57597222,2/11/2003,65
Willis Creek,32.04147222,-90.98208333,2/7/2003,74
Jim's Bayou,32.16888889,-90.85508333,1/24/2003,74
Pickett Creek,32.72722222,-90.15247222,1/30/2003,74
Hasuqua Creek,33.06427778,-88.74711111,2/11/2003,65
Beaver Creek,31.00863889,-90.92230556,2/11/2003,74
Bars Branch,31.17580556,-90.28991667,2/10/2003,65
Leaf River,31.34619444,-89.28013889,1/28/2003,65
Horse Branch,31.87138889,-89.04952778,2/18/2003,65
Long Branch,32.02438889,-88.62858333,2/5/2003,65
Canal #2/#3,30.36955556,-89.18541667,2/4/2003,75
Big Creek,31.10491667,-88.65772222,1/29/2003,65
Leaf River,31.83069444,-89.40758333,2/23/2003,65
Tallahalla Creek,31.23580556,-89.08525,1/24/2003,65
UT to Catalpa Creek,33.41269444,-88.64925,2/24/2003,65
UT to Catalpa Creek,33.42452778,-88.658083,2/24/2003,65
Redding Creek,31.27572222,-91.06252778,1/27/2003,74
Redding Creek,31.27683333,-91.06194444,1/27/2003,74
Big Brown Creek,34.50411111,-88.43513889,3/3/2003,65
Potterchitto Creek,32.33297222,-89.17136111,2/3/2003,65
Potterchitto Creek,32.33752778,-89.16713889,2/3/2003,65
Snake Creek,32.26052778,-90.40777778,2/18/2003,74
Snake Creek,32.26908333,-90.41413889,2/18/2003,74
Chunky Creek,32.55641667,-89.11225,2/3/2003,65
Fords Creek,31.14158333,-91.302,1/28/2003,74
UT to Big Black,33.06644444,-89.86883333,2/24/2003,74
Big Black River,33.57625,-89.13102778,2/4/2004,65
Porter Creek,31.43616667,-90.84616667,1/12/2004,74
Black Creek,31.27613889,-89.49094444,2/3/2004,65
Anderson's Branch,32.431889,-89.10953,3/10/2004,65
Beartail Creek,34.73358333,-89.926,1/8/2004,74
Tubbalubba Creek,34.07655556,-88.69927778,1/14/2004,65
Cummings Creek,34.28361111,-88.407,1/29/2004,65
Halfway Creek,33.9045,-88.44755556,1/14/2004,65
Little Black Creek,33.52872222,-89.25338889,2/4/2004,65
Spring Creek,33.57263889,-89.15261111,1/28/2004,65
Trim Cane Creek,33.51919444,-88.8425,1/13/2004,65
Cypress Creek,33.32794444,-88.90436111,1/13/2004,65
Kincaid Creek,33.35683331,-88.30365,2/3/2004,65
Conehatta Creek,32.41666667,-89.27558333,1/29/2004,65
West Tallahalla Creek,32.20197222,-89.31619444,1/23/2004,65
Oakahay Creek,32.04888889,-89.57163889,2/4/2004,65
Second Creek,31.39127778,-91.38838889,2/3/2004,74
Bogue Homo,31.480806,-89.047278,2/3/2004,65
Whites Creek,31.39713889,-91.35472222,2/27/2004,74
Bear Creek,32.677306,-90.090694,1/15/2004,74
Skiffer Creek,31.76708333,-89.77652778,1/22/2004,65
Juniper Creek,30.7269722,-89.569222,1/20/2004,65
Tangipahoa River,31.21313889,-90.523,1/21/2004,74
Arkabutla Creek,34.5233611,-90.0240556,1/8/2004,74
Davis Creek,34.235583,-89.680167,1/7/2004,65
Clark Creek,33.84219444,-89.54911111,1/22/2004,65
Cowpenna Creek,34.06772222,-88.58822222,1/14/2004,65
Hurricane Creek,34.84144444,-90.07727778,1/15/2004,74
Love Creek,31.11624167,-90.25634444,1/21/2004,65
Courtney Creek,34.25133333,-89.55058333,2/23/2004,65
Unn. trib of Clear Creek,31.285528,-90.44025,1/21/2004,74
Unn. Trib of Clear Creek,31.28425,-90.439722,1/21/2004,74
Little Red Creek,30.72261111,-88.76577778,1/5/2004,65
Sowashee Creek,32.32775,-88.73372222,1/7/2004,65
Beaver Creek,31.04716667,-90.94711111,1/12/2004,74
Mussacuna Creek,34.78888889,-90.02180556,1/15/2004,74
Wahalak Creek,32.8958166,-88.538183,3/3/2006,65
Mason Creek,31.26863889,-88.61133333,9/18/2006,65
Moungers Creek,30.63625,-88.69575,9/12/2006,65
Yocona River,34.25952778,-89.35711111,1/5/2005,65
Mattuby Creek,33.87066667,-88.59825,1/27/2005,65
Houlka Creek,33.74194444,-88.7675,1/27/2005,65
Lobutcha Creek,32.86366667,-89.44302778,1/5/2005,65
Mill Creek,34.52680556,-89.24730556,1/6/2005,65
Dry Creek,31.64061111,-89.72741667,1/10/2005,65
Black Creek,31.44075,-89.67208333,1/10/2005,65
Hoke Creek,34.49975,-89.74191667,1/5/2005,65
Bahala Creek,31.74636111,-90.28988889,1/11/2005,65
Bogue Homa,31.74636111,-89.021,1/27/2005,65
Cedar Creek,31.96152778,-88.50775,1/20/2005,65
Richardson Mill Creek,32.33761111,-89.17772222,1/20/2005,65
Little Tallahatchie Road,34.50613889,-88.99516667,1/25/2005,65
Strong River,31.84611111,-90.09138889,1/27/2005,65
Bogue Chitto River,31.27147222,-90.36283333,1/11/2005,65
Unnamed Trib to Big Black River,33.06771,-89.842144,2/1/2005,74
Unnamed Trib to Pigeon Roost Cree,33.54944444,-89.08722222,1/19/2005,65
Unnamed Trib to Pigeon Roost Cree,33.5365,-89.09894444,1/19/2005,65
Unnamed Trib to Tallahaga Creek,33.00330556,-89.05875,1/6/2005,65
Stafford Creek,31.06925,-91.06844444,1/12/2005,74
Joes Creek,33.24008333,-88.58816667,1/11/2005,65
Chinchahoma Creek,33.34761111,-88.88297222,1/18/2005,65
Talking Warrior Creek,33.38372222,-88.87088889,1/18/2005,65
Bowie River,31.36316667,-89.33225,1/24/2005,65
Bowie River,31.36219444,-89.33213889,1/24/2005,65
Unnamed Trib to Chickasawhay Rive,31.437472,-88.49825,1/25/2005,65
Unnamed Trib to Chickasawhay Rive,31.436222,-88.496778,1/25/2005,65
Richardson Mill Creek,32.33622222,-89.17363889,1/25/2005,65
Turkey Creek,31.325,-91.15855556,1/18/2005,74
Stafford Creek,31.07733333,-91.07038889,1/12/2005,74
Cypress Creek,33.36986111,-88.99411111,1/19/2005,65
Coke Creek,34.872891,-88.349015,2/9/2006,65
Sevenmile Creek,34.9616,-88.378111,2/10/2006,65
Little Yellow Creek,34.834136,-88.286225,2/9/2006,65
Mill Creek,34.07608333,-88.37791667,2/1/2006,65
Shotbag Creek,33.281216,-88.669831,2/1/2006,65
Joe's Creek,33.132629,-88.596974,2/1/2006,65
Dry Creek,33.323717,-88.905588,2/15/2006,65
Hollis Creek,33.327408,-88.801159,2/14/2006,65
Shaw Creek,33.32669444,-88.78408333,2/14/2006,65
Little Baker's Creek,32.343565,-90.456542,1/25/2006,74
Lindsey Creek,32.312278,-90.385312,2/8/2006,74
Fourmile Branch,34.3235,-89.47780556,1/20/2006,65
Riverdale Creek,33.811479,-89.801892,3/4/2006,74
Big Cypress Creek,33.011833,-90.006806,2/21/2006,74
Green Creek,34.174077,-88.401629,1/31/2007,65
Weaver Creek,33.94391667,-88.48641667,1/31/2007,65
unnamed trib to Poplar Creek,33.31441667,-89.47969444,1/25/2007,65
Rambo Creek,32.87633333,-89.73555556,2/12/2007,65
Hobuck Creek,32.75366667,-89.92591667,2/16/2007,74
Tilda Bogue Creek,32.654393,-90.013855,2/22/2007,74
Sugar Bogue,32.44322222,-89.652,2/23/2007,65
Ford's Creek,31.19144444,-91.28944444,1/11/2007,74
Little Spring Creek,34.574357,-89.47483,1/11/2007,65
Blackwater Creek,32.64148333,-88.5379,2/16/2007,65
Irby Mill Creek,32.18030556,-88.58469444,2/5/2007,65
Kennison Creek,32.06469444,-90.92044444,1/9/2007,74
James Creek,31.94194444,-91.1205,12/14/2006,74
North Fork Coles Creek,31.75511111,-91.01783333,12/14/2006,74
Lee Creek,34.51208333,-89.48886111,1/12/2007,65
Campbell Creek,32.01136111,-89.88130556,12/4/2006,65
Limestone Creek,31.88291667,-90.11916667,2/6/2007,65
Riles Creek,31.92538889,-89.91030556,1/17/2007,65
Riles Creek,31.88941667,-89.85297222,2/19/2007,65
Leaf River,32.01352778,-89.43297222,1/31/2007,65
Castaffa Creek,31.97677778,-88.90811111,2/26/2007,65
Tallahoma Creek,31.79772222,-89.17477778,1/30/2007,65
Yellow Creek,31.73091667,-88.68833333,1/29/2007,65
Bayou Sara,31.00861111,-91.38988889,12/15/2006,74
Mcgehee Creek,31.470519,-90.763149,1/12/2007,74
Dry Creek,31.30838889,-91.10894444,12/5/2006,74
Tilton Creek,31.40925,-90.01875,2/20/2007,65
Holiday Creek,31.34605556,-89.87863889,2/17/2007,65
W. Hobolochitto Creek,30.89655556,-89.63263889,1/17/2007,65
Murder Creek,30.78897222,-89.37391667,1/18/2007,65
Turkey Creek,30.39808333,-89.13822222,2/12/2007,75
Big Cedar Creek,30.71997222,-88.58825,2/8/2007,75
East Fork Amite River,31.023979,-90.793169,12/6/2006,74
unnamed trib to Tenn-Tom,34.88563889,-88.25730556,2/6/2007,65
Wolf Creek,33.89936111,-88.57569444,1/30/2007,65
Black Creek,33.11719444,-90.12322222,1/24/2007,74
Big Cypress Creek,33.032896,-89.985799,2/14/2007,74
Ash Creek,32.98411667,-88.3695,2/17/2007,65
Straight Creek,32.83865,-88.66043333,2/16/2007,65
Bodka Creek,32.756334,-88.463979,2/18/2007,65
Beaver Creek,32.56156666,-90.49605,1/30/2007,74
Coldwater River,34.87644444,-89.494,2/28/2007,74
Bear Creek,32.435123,-90.635741,1/30/2007,74
Five Mile Creek,32.21566667,-90.69175,1/10/2007,74
Red Cane Creek,32.48002778,-89.78902778,2/23/2007,65
Oak Chewalla Creek,34.57991667,-89.51308333,1/11/2007,65
Long Creek,32.09688889,-88.61186111,2/6/2007,65
Fifteen Mile Creek,31.5755,-90.80418333,1/31/2007,74
Dabbs Creek,31.97986804,-89.91199362,2/8/2007,65
Silver Creek,31.51641667,-90.0325,2/17/2007,65
West Tallahala,32.02144444,-89.32016667,1/31/2007,65
Keys Mill Creek,31.91766667,-89.40344444,2/15/2007,65
Oakahay Creek,31.74416667,-89.44494444,1/31/2007,65
Souinlovey Creek,32.17102778,-88.93269444,2/6/2007,65
Tallahala Creek,31.96636111,-89.11519444,1/30/2007,65
Buckatunna Creek,32.16266667,-88.57897222,2/5/2007,65
White Sand Creek,31.45077778,-90.01008333,2/17/2007,65
Upper Little Creek,31.18813889,-89.79066667,2/16/2007,65
Beaver Dam Branch,31.11375,-89.41238889,2/16/2007,65
Beaver Dam Creek,30.97227778,-89.05844444,2/7/2007,65
Brushy Creek,30.94155556,-88.45383333,1/9/2007,65
Shelby Creek,34.77561111,-89.0825,2/28/2007,65
East Hobolochitto Creek,30.572,-89.59594444,2/12/2007,65
Black Creek,30.85472222,-88.9145,2/8/2007,65
Wolf River,30.72750702,-89.35438035,2/12/2007,65
Cypress Creek,31.26716667,-91.07005556,1/18/2007,74
Mill Creek,34.82725,-88.14025,2/7/2007,65
"Five Mile Creek, from Rhithron, 2007",31.953702,-88.541344,2/7/2007,65
Bophumpa Creek,33.204611,-90.042278,1/30/2008,74
Lobutcha Creek,32.981611,-89.382972,12/4/2007,65
Bayou Pierre (upstream),31.868944,-90.491556,12/12/2007,74
Mackey's Creek,34.48661111,-88.34447222,1/16/2008,65
Morgan Fork,31.484,-90.92733333,12/12/2007,74
South Fork Coles Creek,31.64444444,-91.15963889,1/2/2008,74
Mud Island Creek,31.74238889,-91.12633333,1/23/2008,74
Bolls Creek,31.72319444,-91.03063889,1/4/2008,74
Big Piney Creek,31.25741667,-91.32655556,1/3/2008,74
Little Buffalo River,31.16180556,-91.12688889,12/5/2007,74
Hominy Creek,31.14533333,-90.69025,1/14/2008,74
Robinson Creek,31.20963889,-90.70286111,1/14/2008,74
Percy Creek,31.14897222,-91.49266667,1/3/2008,74
East Fork Amite River,31.35897222,-90.61286111,1/14/2008,74
Clarks Creek,31.89188889,-90.84252778,1/9/2008,74
Little Bayou Pierre,31.90663889,-90.83383333,1/9/2008,74
Homochitto River,31.63311111,-90.71927778,12/6/2007,74
Upper Little Creek,31.25352778,-89.70075,1/5/2008,65
Greens Creek,31.40197222,-89.95330556,1/15/2008,65
Campbell Creek,32.13355556,-89.84061111,1/21/2008,65
Tumbaloo Creek,32.18694444,-90.00097222,1/21/2008,74
White Oak Creek,32.05980556,-90.58622222,1/17/2008,74
Tallahalla Creek,32.15772222,-90.43894444,1/15/2008,74
South Fork Tilatoba Creek,33.97811111,-89.97805556,1/24/2008,74
York Creek,33.94108333,-89.58222222,1/24/2008,65
Cane Creek,33.80627778,-88.92266667,1/28/2008,65
Chicco Creek,33.82972222,-88.94475,1/14/2008,65
Houlka Creek,33.87763889,-88.95186111,1/9/2008,65
Standing Reed Creek,33.699361,-88.935667,1/14/2008,65
Widows Creek,31.95444444,-91.06411111,1/16/2008,74
Paces Bayou,32.224,-90.91458333,12/11/2007,74
Muddy Bayou,31.84713889,-91.16125,1/22/2008,74
Bear Creek,31.20122222,-91.44402778,2/28/2008,74
Markman Creek,32.28375,-90.76980556,1/15/2008,74
Muddy Creek,32.36458333,-90.73333333,12/4/2007,74
Long Branch,30.63316667,-89.71286111,2/12/2008,65
Price Creek,30.67983333,-89.69927778,1/8/2008,65
Kennedy Creek,30.71166667,-89.66152778,1/8/2008,65
Kirby Creek,30.82538889,-89.24086111,2/11/2008,65
Double Branch,30.88269444,-89.23033333,2/11/2008,65
Martin Creek,30.89169444,-89.24416667,2/11/2008,65
Pearces Creek,31.04127778,-89.07872222,12/6/2007,65
Haverson Mill Creek,31.08305556,-88.816,12/6/2007,65
McMillan Creek,31.03777778,-88.79313889,12/5/2007,65
Beaver Creek,31.5315,-88.5665,12/5/2007,65
Gum Creek,34.34077778,-88.24744444,1/9/2008,65
Chubby Creek,34.40905556,-88.24663889,1/9/2008,65
Nichols Creek,33.83308333,-88.47377778,1/16/2008,65
Campbelltown Creek,34.46552778,-88.62188889,1/8/2008,65
Twenty Mile Creek,34.5055,-88.60866667,1/8/2008,65
Weeson Branch,34.54194444,-88.40258333,1/9/2008,65
Clear Creek,34.68905556,-88.80072222,1/15/2008,65
Cuffawa Creek,34.74180556,-89.62566667,2/15/2008,74
Tippah River,34.72611111,-89.06427778,2/15/2008,65
Hatchie River,34.80597222,-88.72313889,1/15/2008,65
Tillatoba Creek,33.99427778,-89.95180556,1/24/2008,74
Abiaca Creek,33.32030556,-90.01002778,2/7/2008,74
Doaks Creeks,32.70405556,-89.86716667,1/29/2008,74
Persimmon Creek,32.56105556,-90.21183333,2/5/2008,74
Homochitto River,31.33313889,-91.35897222,12/5/2007,73
Pearl River,32.680722,-89.621778,12/13/2007,65
Cane Creek,34.76961111,-90.04038889,2/14/2008,74
Cypress Creek,33.95605556,-89.69225,1/24/2008,65
Yalobusha River,33.87813889,-89.10802778,1/25/2008,65
Sand Creek,34.35794444,-88.68436111,1/8/2008,65
Town Creek,34.15322222,-88.66058333,1/3/2008,65
Coonewah Creek,34.14272222,-88.72183333,1/3/2008,65
Noxapater Creek,33.03627778,-89.15994444,12/4/2007,65
South Fork Coles Creek,31.64116667,-91.18272222,12/4/2007,74
Caney Creek,34.885234,-88.317792,2/26/2008,65
Little Yellow Creek,34.882364,-88.318045,2/26/2008,65
Cripple Deer Creek,34.70908333,-88.12047222,2/26/2008,65
David Bayou,34.43802806,-90.22661111,9/19/2007,73
Ashlog Bayou,34.2841,-90.1931,9/18/2007,73
Deer Creek,32.63369806,-90.86276806,9/10/2007,73
Bear Bayou,33.91597194,-90.47994389,9/24/2007,73
Home Cypress Bayou,33.96377806,-90.45944,9/18/2007,73
Janes Bayou,32.9836,-90.78191694,9/10/2007,73
Lean Bayou,33.71897194,-90.64266694,9/24/2007,73
Mound Bayou,33.85125,-90.698,9/24/2007,73
Spring Branch,33.24164306,-90.18350806,9/11/2007,73
Clear Creek,33.55780611,-90.92994389,9/13/2007,73
Bobo Bayou,34.28393,-90.17579,9/18/2007,73
Black Bayou,33.98366694,-90.59444389,9/18/2007,73
Hopson Bayou,34.07305611,-90.35283306,9/17/2007,73
Snake Creek,33.20170194,-90.4113,9/12/2007,73
Riches Bayou,34.22791694,-90.692,10/2/2008,73
Harris Bayou,34.08533306,-90.58175,10/8/2008,73
Yazoo Pass,34.39105611,-90.46022194,10/1/2008,73
Parks Bayou,33.81813889,-90.42327806,10/8/2008,73
Quiver River,33.96030611,-90.45036111,10/7/2008,73
Sevenmile Bayou,34.59791694,-90.28225,10/1/2008,73
Ark Bayou,34.45669389,-90.37108306,10/1/2008,73
White Oak Bayou,34.51583306,-90.32355611,9/29/2008,73
UT to Yazoo River,32.87315,-90.4199,9/25/2008,73
Silver Creek,32.81928306,-90.70276694,9/30/2008,73
Hushpuckena River,33.98714194,-90.71146306,10/7/2008,73
Hatcher Bayou,32.291639,-90.891361,2/10/2009,74
Indian Creek,32.15833333,-90.120389,1/27/2009,74
Little Bear Creek,32.54522222,-90.02083333,2/25/2009,74
Pepper Creek,32.74205556,-90.13136111,2/26/2009,74
Bacon Bayou,30.46922222,-89.48938889,1/14/2009,65
Orphan Creek,30.4443611,-89.4824167,1/27/2009,65
Orphan Creek,30.4430833,-89.4836667,1/27/2009,65
Cowpenna Creek,34.13108333,-88.63677778,1/13/2009,65
Horse Creek,30.68980556,-89.17372222,1/26/2009,65
Sandy Creek,30.50622222,-89.28163889,1/22/2009,65
Railroad Creek,30.63877778,-88.89047222,12/3/2008,65
Tuxachachanie Creek,30.67269444,-89.00941667,1/20/2009,65
White Creek,30.80702778,-88.68116667,1/13/2009,75
Big Creek,30.91386111,-88.67583333,1/13/2009,65
Brushy Creek,31.12852778,-88.66944444,1/21/2009,65
Little Rock Creek,32.460881,-88.988903,1/28/2009,65
Tallashua Creek,32.46405556,-88.98119444,1/28/2009,65
Tallashua Creek,32.62255556,-88.95744444,1/27/2009,65
Okannatie Creek,34.388233,-88.97035,1/14/2009,65
Sand Creek,34.395982,-88.994155,1/14/2009,65
Tulip Creek,34.26169444,-88.64872222,1/22/2009,65
Mill Creek,30.49597222,-89.55644444,1/27/2009,65
Bell Creek,30.57941667,-89.35227778,2/5/2009,65
North Tippah Creek,34.73872222,-89.02180556,1/21/2009,65
Turkey Creek,30.44,-89.16894444,2/5/2009,75
Jumpoff Creek,30.798444,-89.565861,1/14/2009,65
Terrible Creek,31.58561111,-89.63305556,2/26/2009,65
Big Creek,31.39819444,-89.41005556,2/6/2009,65
Tiger Creek,31.47222222,-88.99933333,1/21/2009,65
Oakahay Creek,32.18511111,-89.53708333,1/13/2009,65
Little Oakahay Creek,32.07611111,-89.58130556,1/13/2009,65
UT Oakahay Creek,31.98197222,-89.56313889,1/13/2009,65
UT Oakahay Creek,31.98430556,-89.58891667,1/14/2009,65
Clear Creek,31.95975,-89.59691667,1/14/2009,65
Providence Creek,31.42869444,-89.35661111,2/6/2009,65
Boguegaba Creek,34.10263889,-88.48808333,1/22/2009,65
Meridian Creek,33.87369444,-89.204,2/25/2009,65
Rocky Greasy Creek,32.130278,-88.523556,1/9/2009,65
Hurricane Creek,32.16694444,-88.54388889,1/29/2009,65
Archusa Creek,32.09363889,-88.71963889,2/3/2009,65
Garret Creek,31.74761111,-90.82508333,1/28/2009,74
Hughes Creek,31.81319444,-90.87561111,1/28/2009,74
Willis Creek,31.85402778,-90.91880556,2/10/2009,74
Hollybush Creek,32.382009,-89.840443,2/3/2009,65
Dry Creek,32.69311111,-89.88452778,2/25/2009,74
Cobbs Creek,32.83605556,-89.50261111,2/22/2009,65
Shiola Creek,32.77616667,-89.65455556,2/4/2009,65
Piney Woods Creek,31.37477778,-88.83841667,12/8/2008,65
Sand Hill Creek,31.3653333,-88.8094722,12/8/2008,65
Hell Hole Creek,31.3190556,-88.6773611,12/8/2008,65
Green Creek,31.2110833,-88.5168056,12/9/2008,65
Griffin Creek,31.36580556,-88.56369444,1/21/2009,65
Turkey Creek,31.285056,-88.51583333,1/21/2009,65
UT to Okannati Creek,34.389,-88.96966667,1/14/2009,65
Tallabinella Creek,34.102778,-88.86025,1/23/2009,65
Chuquatonchee Creek,33.886472,-88.794306,1/23/2009,65
James Creek,33.788694,-88.535,1/13/2009,65
Town Creek,33.569472,-88.643111,1/26/2009,65
Catalpa Creek,33.425,-88.66111111,1/26/2009,65
South Branch,33.367782,-88.532316,1/26/2009,65
Plum Creek,33.102933,-88.523283,1/27/2009,65
Big Sand Creek,32.1165,-90.765917,1/28/2009,74
Porter Creek,32.451944,-90.539194,1/23/2009,74
Turkey Creek,31.949167,-90.519222,1/28/2009,74
Brushy Creek,31.936889,-90.216028,1/15/2009,74
Little Bahala Creek,31.693778,-90.256944,1/27/2009,65
Hurricane Creek,34.44555556,-89.511,1/21/2009,65
McGee Creek,31.26694444,-90.08413889,2/6/2009,65
Whisky Creek,30.990346,-88.859961,1/13/2009,65
Meadow Creek,31.14975,-88.524917,12/9/2008,65
Little Hell Creek,30.894611,-89.631611,2/10/2009,65
Tenmile Creek,30.761556,-89.159556,1/26/2009,65
Saucier Creek,30.604917,-89.097472,1/20/2009,65
Little Biloxi River,30.551694,-89.225361,1/22/2009,65
Chiwapa Creek,34.195944,-88.897972,1/23/2009,65
Orphan Creek,30.456417,-89.47325,1/26/2009,65
Hickahala Creek,34.63211111,-89.92308333,3/6/2008,74
James Wolf Canal,34.611806,-89.817056,3/6/2008,74
Ockahatla Creek,32.347972,-89.021083,1/30/2008,65
Tallahatta Creek,32.370889,-88.904361,2/5/2008,65
Fourteen Mile Creek,32.26341667,-90.62019444,1/25/2008,74
Okatibbee Creek,32.60225,-88.840222,2/5/2008,65
Potterchitto Creek,32.31013889,-89.02605556,2/8/2008,65
Okatibbee Creek,32.29972222,-88.75366667,2/8/2008,65
Donivan Creek,34.518194,-88.545694,2/11/2008,65
Turkey Creek,32.23552778,-90.54769444,1/29/2008,74
Osborne Creek,34.62130556,-88.61038889,2/12/2008,65
Martin Creek,34.61758333,-88.455,2/12/2008,65
Fleetwood Creek,32.36555556,-90.46247222,1/24/2008,74
N Fk Tillatoba Creek,34.03683333,-90.05197222,1/13/2010,74
Short Creek,32.79063889,-90.41108333,2/17/2010,74
Beaver Creek,30.96956111,-88.96722528,1/28/2010,65
Dry Creek,31.75836111,-88.546,2/1/2010,65
Fallen Creek,31.98352778,-88.68794444,2/2/2010,65
Gordon Creek,32.03633333,-88.811225,2/2/2010,65
Okatoma Creek,31.90330556,-89.70913889,1/26/2010,65
West Fork Greens Creek,31.45194444,-89.89136111,2/3/2010,65
East Fork Greens Creek,31.42833333,-89.89161111,2/3/2010,65
Wolf Creek,30.54911111,-89.33116667,1/14/2010,65
Bear Creek,31.63752778,-90.13472222,2/24/2010,65
Brushy Creek,31.80691667,-90.49813889,2/24/2010,74
Raspberry Creek,32.14569444,-89.71141667,2/2/2010,65
Purvis Creek,32.11105556,-89.73177778,2/2/2010,65
Tallabogue Creek,32.23519444,-89.471,2/11/2010,65
Scotchenflipper Creek,32.22116667,-89.02811111,2/10/2010,65
Ascalmore Creek,33.90108333,-89.97627778,1/13/2010,74
West Prong Muddy Creek,34.83447222,-88.94025,2/3/2010,65
Mill Creek,33.19766667,-88.993,2/22/2010,65
Cane Creek,33.73306666,-89.9689,2/22/2010,74
Hang Kettle Creek,33.69552778,-88.56686111,2/23/2010,65
McCrary Creek,33.48733333,-88.39083333,2/10/2010,65
Noxubee River,33.24888889,-89.09416667,2/11/2010,65
Woodward Creek,32.98926666,-88.34495,2/24/2010,65
Shy Hammock Creek,32.83245,-88.3961,2/22/2010,65
Strong River,32.122,-89.71408333,2/19/2010,65
Caney Creek,32.26027778,-89.56188889,2/11/2010,65
Bayou Pierre (downstream),32.00108333,-90.68658333,1/12/2010,74
Grahm Mill Creek,34.50144444,-89.49058333,1/5/2010,65
Little Bayou Pierre,31.95312842,-90.95967269,1/12/2010,74
Dabbs Creek,32.042377,-89.948427,2/17/2010,65
Big Creek,31.90561111,-90.04277778,1/5/2010,65
Bahala Creek,31.70641667,-90.20191667,2/18/2010,65
Fair River,31.61797222,-90.13086111,1/27/2010,65
Pretty Branch,31.63538889,-90.06352778,1/5/2010,65
Halls Creek,31.53480556,-90.09944444,12/17/2009,65
West Bouie Creek,31.54502778,-89.63,1/27/2010,65
Coldwater Creek,31.74833333,-88.54727778,2/1/2010,65
Crooked Creek,31.35194438,-91.24903717,1/20/2010,74
Buffalo River,31.23877778,-91.34111111,1/12/2010,74
Middle Fork Homochitto River,31.46988889,-90.90941667,1/14/2010,74
Thompson Creek -main stem,31.01591542,-91.17078969,1/13/2010,74
Boone Creek,31.48205556,-90.389,1/14/2010,65
Shelton Creek,31.45886111,-89.38330556,1/26/2010,65
Turtleskin Creek,30.43036111,-89.61836111,1/13/2010,75
Flint Creek,30.84475421,-89.0766851,1/26/2010,65
Little Cedar Creek,30.84336111,-88.5315,1/12/2010,65
Indian Creek,30.76961111,-88.63602778,1/12/2010,65
Little Tallahatchie River,34.57766667,-88.89361111,2/25/2010,65
Cane Creek,34.52308333,-88.97511111,2/3/2010,65
Chambers Creek,34.98072222,-88.37288889,2/20/2010,65
Wahalak Creek,34.89738889,-88.52105556,2/20/2010,65
Little Cripple Deer Creek,34.73497222,-88.19602778,2/19/2010,65
Roberson Creek,34.894667,-89.18919444,1/6/2010,74
Cripple Deer Creek,34.67461111,-88.17136111,2/19/2010,65
McCall Creek,31.508944,-90.688611,12/17/2009,74
Chiwapa Creek,34.10397222,-88.70394444,2/8/2010,65
Thompson Creek,32.7262778,-90.4607222,2/18/2010,74
Cedar Creek,33.338833,-88.441528,2/23/2010,65
Blackwater Creek,34.57036111,-89.61363889,2/2/2010,65
Stinson Creek,33.60686111,-88.46547222,2/10/2010,65
Middle Fork Thompson Creek,31.00388889,-91.24663889,1/13/2010,74
West Fork Thompson Creek,31.02369444,-91.29052778,1/6/2010,74
Dry Creek,31.35369444,-91.12488889,1/20/2010,74
Eucutta Creek,31.84030556,-88.72625,2/2/2010,65
Catahoula Creek,30.49802778,-89.53405556,1/13/2010,65
Beaver Bayou,33.8607539,-90.66535679,9/30/2010,73
Dead Negro Slough,34.92075012,-90.2022192,10/2/2010,73
Phillips Bayou,34.48409454,-90.53097715,10/6/2010,73
Richies Bayou,34.20916249,-90.70029467,9/8/2010,73
Annis Brake,34.09511224,-90.74383675,9/8/2010,73
Lane Bayou (Bogue Phalia),33.85268995,-90.91899944,9/30/2010,73
Big Sunflower River,34.26814524,-90.56534589,9/8/2010,73
Porter Bayou,33.55815695,-90.73922854,9/22/2010,73
Porter Bayou,33.56750788,-90.73281694,9/22/2010,73
Sixmile Bayou,33.41630417,-90.80767101,9/15/2010,73
Twin Lake Bayou,33.1155343,-90.6535652,9/15/2010,73
Short Creek,32.81652464,-90.4499622,9/15/2010,73
Lake Cormorant Bayou,34.77215446,-90.21655214,10/5/2010,73
Sevenmile Bayou,34.6123918,-90.26819106,10/5/2010,73
Lake Bayou,34.25224181,-90.50694536,10/6/2010,73
Swiftwater Bayou,33.29813829,-90.97454081,9/15/2010,73
Pecan Bayou,33.65721472,-90.48659041,9/8/2010,73
Turkey Bayou,33.52659604,-90.41366458,9/22/2010,73
Oneil Creek,32.73735177,-90.49830033,9/16/2010,73
Tallashua Creek,32.511111,-88.983444,1/22/2009,65
HICKORY CREEK,30.622889,-89.455889,1/14/2009,65
Riverdale Creek upstream,33.854453,-89.808302,2/11/2009,65
Kossuth Creek,34.893944,-88.592694,2/3/2009,65
Big Cypress Creek ,32.970083,-90.033444,1/21/2009,74
TURKEY CREEK,34.874393,-88.916731,2/11/2011,65
North Prong Muddy Creek,34.841525,-88.939831,1/11/2011,65
Trib of N Prong Muddy Creek,34.839104,-88.941965,1/15/2011,65
Tarbreeches Creek,34.945478,-88.641107,2/16/2011,65
Eastes Creek,34.915153,-88.629288,1/15/2011,65
Rotten Bayou,30.435806,-89.315686,3/16/2011,65
YOCKANOOKANY RIVER,32.89755556,-89.61422222,3/1/2011,65
Topashaw Creek Canal,33.76825,-89.20541667,2/16/2011,65
Spring Creek,33.69530556,-88.55638889,1/20/2011,65
McKinley Creek,33.71702778,-88.44605556,1/20/2011,65
Cooper Creek,33.60177778,-88.30705556,1/21/2011,65
Yockanookany River,33.20138889,-89.35405556,1/24/2011,65
Tuscotameta Creek,32.65180556,-89.56972222,2/24/2011,65
Limekiln Creek,32.46436666,-90.28801665,1/14/2011,74
Hontokalo Creek,32.51730556,-89.39777778,1/24/2011,65
Priest Creek,31.26888889,-89.243,2/7/2011,65
Yalobusha River,33.83805556,-89.27583333,2/17/2011,65
Topashaw Creek,33.75805556,-89.17861111,2/17/2011,65
Bear Creek,33.78611111,-89.25083333,2/16/2011,65
Straight Fence Creek,32.418782,-90.351875,1/12/2011,74
Chunky Creek,32.34772222,-88.98147222,2/14/2011,65
LEITCH MILL BRANCH,34.89641667,-88.36480556,1/19/2011,65
Moungers Creek,30.495917,-89.380694,1/12/2011,65
Bluff Creek,30.855,-88.96683333,1/20/2011,65
Big Creek,30.85730556,-88.69777778,1/13/2011,65
Rocky Creek,30.86169444,-88.43138889,2/10/2011,65
Cypress Creek,30.79327778,-88.95641667,1/20/2011,65
Days Creek,31.24872222,-90.88905556,1/20/2011,74
Pinckneyville Creek,31.02588889,-91.4795,2/23/2011,74
Browns Creek,31.13372222,-91.19461111,2/23/2011,74
Wells Creek,31.36863432,-91.14726403,1/24/2011,74
Briar Creek,34.29927778,-88.21041667,2/7/2011,65
Gum Creek,34.38186111,-88.20944444,2/7/2011,65
Ray Branch Creek,34.39244444,-88.18841667,2/7/2011,65
Panter Creek,34.37044444,-88.25838889,1/26/2011,65
Boguefala Creek,34.16516667,-88.51241667,1/24/2011,65
Hinckle Creek,34.77866667,-88.54033333,1/18/2011,65
Bynum Creek,34.78008333,-88.54083333,1/18/2011,65
Bridge Creek,34.85852778,-88.81116667,1/18/2011,65
Fourth Creek,34.89175,-88.84311111,1/17/2011,65
Sand Creek,34.38927778,-88.998,1/17/2011,65
Yonaba Creek,34.34041667,-88.74866667,1/24/2011,65
Long Branch,33.61777778,-88.76119444,1/7/2011,65
Coon Creek,32.87288889,-89.45161111,1/13/2011,65
Pickens Creek,32.82861111,-89.49775,1/13/2011,65
Yazoo Creek,32.70486111,-88.68722222,2/16/2011,65
Poole Branch,32.70483333,-88.58994444,2/17/2000,65
Clear Creek,31.84922222,-89.57836111,1/18/2011,65
Whitesand Creek,31.49491667,-89.94744444,1/26/2011,65
Jaybrid Creek,31.58686111,-89.83091667,1/18/2011,65
Holiday Creek,31.44030556,-89.78011111,1/24/2011,65
Holiday Creek,31.42844444,-89.75075,1/24/2011,65
Rawls Creek,31.09286111,-89.74191667,2/14/2011,65
Sand Creek,34.31522222,-88.52825,2/8/2011,65
Puncheon Creek,34.36316667,-88.54247222,2/9/2011,65
Penny Creek,34.38763889,-88.53958333,2/9/2011,65
Mill Creek,31.67427778,-88.52936111,2/8/2011,65
Little Creek,31.46919444,-88.65113889,2/9/2011,65
Steel Creek,31.81044444,-90.16077778,1/18/2011,65
Brushy Creek,31.97,-90.29066667,1/19/2011,74
Copiah Creek,31.91097222,-90.29591667,1/19/2011,74
McCall Creek,31.57386111,-90.59777778,1/19/2011,74
Dry Branch,31.48175,-90.82769444,1/24/2011,74
Shabuta Creek,31.88552778,-88.74055556,2/15/2011,65
Harper Creek,31.30616667,-89.85325,1/26/2011,65
Chunky Creek,32.416528,-89.025056,2/16/2011,65
Smith Creek,34.11825,-88.31458333,2/8/2011,65
Macedonia Creek,33.03677999,-88.56346458,2/15/2011,65
Houston Creek,32.60302778,-88.86111111,2/16/2011,65
Chunky River,32.32702778,-88.90825,2/14/2011,65
Sowashee Creek,32.34441667,-88.72644444,2/14/2011,65
Lockes Creek,34.46972222,-89.13727778,1/12/2011,65
Hortons Mill Creek,31.74427778,-88.65197222,2/7/2011,65
Maynor Creek,31.58630556,-88.69483333,2/8/2011,65
Sandy Creek,31.38388889,-91.24436111,1/24/2011,74
Topisaw Creek,31.24947222,-90.28588889,1/20/2011,65
E Fk Pushepatapa Creek,31.00427778,-89.93980556,2/11/2011,65
Clear Creek,31.037833,-89.745611,2/14/2011,65
Big Creek,31.066,-89.26955556,1/21/2011,65
Cypress Creek,31.0265,-89.01705556,1/27/2011,65
Bluff Creek,30.53233333,-88.68858333,1/12/2011,75
Caney Creek,34.88994444,-88.34272222,1/19/2011,65
Doaks Creek,32.73180556,-89.9916111,2/22/2011,74
Big Creek,31.46552778,-88.5757778,2/9/2011,65
Poplar Creek,31.07430556,-89.17236111,1/14/2011,65
Station Creek,31.6428611,-89.4487222,1/18/2011,65
Holly Branch,34.60547222,-88.14994444,1/6/2011,65
Copper Creek,33.61985,-88.29568,2/12/2009,65
Big Cypress Creek,32.88125,-90.058361,1/21/2009,74
Limekiln Creek,32.472778,-90.282806,1/23/2009,74
Hickory Creek,30.506528,-89.494111,1/14/2009,65
Parmicha Creek,34.829389,-88.541472,2/2/2009,65
Howard Creek,33.589266,-88.343362,2/12/2009,65
Howard Creek,33.624915,-88.342844,2/12/2009,65
Mayhew Creek,33.641515,-88.287846,2/12/2009,65
TWISTWOOD CREEK,32.104083,-88.929278,1/22/2009,65
Kirby Creek,30.81924,-89.18369,1/6/2012,65
Zilpha Creek,33.23348,-89.69421,1/25/2012,65
Cox Creek,32.46935,-90.52173,1/18/2012,74
Bogue Chitto Creek,32.49915,-90.36075,1/17/2012,74
Atwood Creek,33.08881,-89.68742,1/25/2012,65
Mill Creek,30.517389,-89.565611,1/4/2012,65
Grays Creek,34.839667,-88.939611,1/16/2012,74
Porters Creek,34.9892,-88.99243,1/16/2012,65
Bearman Creek,34.98222,-88.81166,1/16/2012,65
Big Red Creek,32.55759,-88.53057,2/27/2012,65
Okatoma Creek,31.76639,-89.66073,1/23/2012,65
Little Black Creek,31.10332,-89.31536,1/5/2012,65
Red Creek,31.01057,-89.4511,1/5/2012,65
West Little Thompson Creek,31.45465,-88.9225,2/8/2012,65
Thompson Creek,31.26263,-88.90347,1/9/2012,65
Gaines Creek,31.25421,-88.86555,1/9/2012,65
Big Creek,31.2243,-88.64289,1/24/2012,65
Big Creek,31.64985,-89.31701,2/8/2012,65
Kittrell Mill Creek,31.22779,-88.64668,1/24/2012,65
Reese Creek,31.24566,-89.15261,1/9/2012,65
Dry Creek,31.63576,-89.72775,1/23/2012,65
Twistwood Creek,32.10342,-88.93169,2/9/2012,65
Lobutcha Creek,33.10477,-89.2494,2/1/2012,65
Cole Creek,33.1535,-89.44494,2/1/2012,65
Tibby Creek,33.21283,-89.32603,2/1/2012,65
Jofaska Creek,32.89739,-89.22113,1/31/2012,65
Lukfapa Creek,32.86232,-89.27233,1/31/2012,65
Land Creek,32.7735,-88.851,2/28/2012,65
Steen Creek,32.11362,-90.18788,1/19/2012,74
Ten Mile Creek,31.15831,-89.8477,1/30/2012,65
McGee Creek,31.04064,-90.18981,1/31/2012,65
Lower Little Creek,31.1627,-89.60764,1/30/2012,65
Little Copiah Creek,31.94377,-90.32714,1/19/2012,74
Bahala/Russell Creek,31.76466,-90.3558,1/19/2012,74
Big Branch,30.92319,-89.59914,1/5/2012,65
Halbert Branch,31.54921,-90.46216,2/9/2012,74
West Fork Pushepatapa Creek,31.00729,-90.00552,1/31/2012,65
Love Creek,31.11647,-90.25739,2/7/2012,65
Dowd Creek,31.84542,-91.14687,2/22/2012,74
Ziegler Creek,31.35318,-91.07948,2/9/2012,74
Tallahalla Creek,32.08257,-90.59644,1/18/2012,74
Brushy Creek,31.32161,-90.97968,2/7/2012,74
Little Beaver Creek,31.14678,-91.00009,2/8/2012,74
Pretty Creek,31.37523,-91.21038,2/7/2012,74
Brushy Creek,31.58334,-90.88833,2/22/2012,74
Greenwood Creek,34.16944,-88.49999,2/12/2012,65
Pawticfaw Creek,32.64674,-88.49686,2/27/2012,65
Pennywinkle Creek,34.74295,-88.15583,2/9/2012,65
Little Yellow Creek,34.87975,-88.32326,2/9/2012,65
Indian Creek,34.83209,-88.18097,2/11/2012,65
Johnson Creek,34.91524,-90.13489,1/30/2012,74
SHORT FORK CREEK,34.80088889,-89.896,1/6/2012,74
ARKABUTLA CREEK,34.65052778,-90.06619444,2/1/2012,74
SENATOBIA CREEK,34.54922222,-89.87730556,1/30/2012,74
BIG SPRING CREEK,34.63663889,-89.39625,1/5/2012,65
BYNUM CREEK,34.22766667,-89.73925,12/14/2011,65
ASCALMORE CREEK,33.92019444,-90.05488889,12/13/2011,74
PINEY CREEK,32.9125,-90.35152778,1/17/2012,74
ABIACA CREEK,33.34,-90.151389,1/24/2012,73
COILA CREEK,33.37038889,-90.08752778,1/24/2012,74
TURKEY CREEK,34.01531,-89.60716,1/4/2012,65
LONG CREEK,34.23833333,-89.84538889,12/13/2011,74
Mountain Creek,32.101246,-90.163304,2/29/2012,74
Camp Creek,34.92130556,-89.87041667,2/4/2013,74
Browning Creek,33.303077,-88.728388,1/24/2013,65
Sand Creek,33.532612,-89.389659,1/23/2013,65
Okachickima Creek,33.93003333,-89.72493333,1/28/2013,65
Terry's Creek,31.02323,-90.520774,1/8/2013,65
Lappatubby Creek,34.38322222,-89.09822222,2/5/2013,65
Chuquatonchee Creek,34.02322222,-88.89452778,1/29/2013,65
Owl Creek,34.73147222,-88.86066667,2/7/2013,65
MIDDLE BYWY CREEK,33.422083,-89.26398,1/29/2013,65
Cowpen Creek,33.83622222,-89.59822222,1/7/2013,65
Clear Creek,32.382009,-89.840443,1/28/2013,65
CHIWAPA CREEK,34.165937,-88.812631,1/28/2013,65
WOLF CREEK,34.621325,-88.634808,2/25/2013,65
Horse Pen Creek,33.74231665,-89.49541665,1/7/2013,65
Calabrella Creek,33.52291667,-89.39797222,1/29/2013,65
Long Branch,33.51227778,-88.91705556,1/29/2013,65
Tackett Creek,32.91294444,-89.97394444,3/8/2013,74
Hamer Bayou,32.17705556,-90.80738889,1/28/2013,74
Bakers Creek,32.271861,-90.604333,1/28/2013,74
Oaklimeter Creek,34.64422222,-89.31197222,2/15/2013,65
Cedar Creek,32.20163889,-89.30013889,1/29/2013,65
Caney Creek,32.20313422,-89.598814,2/6/2013,65
Alamuchee Creek,32.36622222,-88.41544444,2/5/2013,65
Middle Fork Homochitto River,31.62122222,-90.91313889,3/4/2013,74
Leonards Mill Creek,31.74044444,-89.65172222,2/13/2013,65
Tar Creek,31.27788889,-91.09536111,1/29/2013,74
Caston Creek,31.33355556,-90.9115,1/29/2013,74
Leatherwood Creek,31.19838889,-90.27294444,1/24/2013,65
Monroe Creek,31.316825,-89.52363889,2/13/2013,65
Crane Creek,30.62219444,-89.38111111,1/7/2013,65
Elam Creek,34.92438889,-88.51983333,2/7/2013,65
Tallahata Creek,31.862278,-89.085333,2/5/2013,65
Upper Leaf River,32.2273889,-89.42436111,2/6/2013,65
Clabber Creek,31.3260556,-90.4492778,1/25/2013,74
Wet Water Creek,33.16975,-88.645861,3/1/2013,65
Rock Creek,34.722028,-90.1552222,2/27/2013,74
Howard Creek,33.62216667,-88.34566667,2/6/2013,65
Shutispear Creek,33.73758333,-89.30613889,1/7/2013,65
Bahala Creek,31.79652778,-90.33283611,1/29/2013,74
Silver Creek,31.09547222,-90.25605556,1/24/2013,65
Big Brown Creek,34.47463889,-88.43866667,1/29/2013,65
Patton Creek to Chickasaway River,31.65394444,-88.62369444,1/8/2013,65
Patton Creek thence to Chickasaway River,31.63772222,-88.62633333,1/8/2013,65
Jasper Creek,34.51625,-89.00363889,3/7/2013,65
Mayhew Creek,33.64413889,-88.28752778,2/6/2013,65
Penalty Creek,32.153389,-88.999278,2/6/2013,65
Anderson Branch,32.432333,-89.11081,2/17/2013,65
Joes Creek,33.17544444,-88.60752778,3/2/2013,65
DEAD TIGER CREEK,30.41166667,-89.5485,1/17/2013,75
COWPEN CREEK,34.07161111,-89.32475,1/28/2013,65
Hickahala Creek,34.64141667,-89.80966667,2/20/2014,74
Tickfaw River (upper),31.049492,-90.633975,1/9/2014,65
Bates Creek,31.507815,-91.172214,1/7/2014,74
Flat Branch,30.56802778,-89.10605556,1/23/2014,65
Martin Creek,31.14093,-88.55039,1/22/2014,65
Martin Creek,31.14263,-88.5535,1/22/2014,65
Foster Creek,31.31772,-91.09042,1/9/2014,74
Skuna River Canal,33.97536111,-89.34402778,1/26/2014,65
Goodfood Creek,34.11197222,-88.93588889,1/20/2014,65
Red Banks Creek,34.80152778,-89.75908333,2/19/2014,74
Little Topishaw Creek,33.72391667,-89.17494444,1/26/2014,65
Sand Creek,33.67638889,-88.89711111,2/27/2014,65
Fannegusha Creek,33.19163889,-90.13363889,2/23/2014,74
Fannegusha Creek,33.2265,-90.03952778,1/23/2014,74
Scoobachita Creek,33.22219444,-89.62361111,1/31/2014,65
Town Creek,32.72008333,-89.53447222,12/17/2013,65
unnamed trib to Kentawka Canal,32.78713889,-89.19802778,12/17/2013,65
Fannegusha Creek,32.530459,-89.826541,1/30/2014,74
Coffee Bogue,32.58111111,-89.73280556,1/30/2014,65
Oakey Woods Creek,31.61933333,-89.34883333,1/21/2014,65
Unnamed Trib,34.42986111,-89.18611111,1/21/2014,65
Millbrook Creek,31.12916667,-91.5085,1/8/2014,74
Cars Creek,31.09334,-90.78139,1/9/2014,74
Clear Creek,31.26941667,-90.37391667,3/5/2014,65
Irving Creek,31.71302778,-90.08047222,1/21/2014,65
Comite Creek,31.0065,-91.039722,1/8/2014,74
Cherry Creek,34.338638,-89.0195833,1/20/2014,65
Splinter Creek,34.2367222,-89.6359444,1/22/2014,65
Cowpen Creek,34.04675,-89.32191667,1/26/2014,65
Little Bogue,33.68563889,-89.7055,1/25/2014,65
Big Bogue,33.63344444,-89.70302778,1/25/2014,65
Cane Creek,32.49166667,-89.89925,2/18/2014,65
Tiger Creek,30.54325,-89.07266667,12/12/2013,65
Fords Creek,31.17863889,-91.29963889,1/8/2014,74
Lyon Creek,34.28805556,-89.00816667,1/20/2014,65
Little Tallahatchie River,34.46530556,-89.05391667,1/21/2014,65
Little Tallahatchie River,34.50541,-88.99697,1/21/2014,65
Red Bud Creek,34.46663889,-88.28286111,2/28/2014,65
Tallabinnela Creek,34.06684,-88.68526,2/26/2014,65
BATUPAN BOGUE,33.73905556,-89.77480556,1/25/2014,65
Potacocowa Creek,33.66950461,-90.07195104,9/9/2015,73
Tesheva Creek,33.00596058,-90.32206834,9/2/2015,73
Piney Creek,32.90747401,-90.38246691,9/23/2015,73
TEOC CREEK,33.60425,-90.1049,9/22/2015,73
BIG SAND CREEK,33.557556,-90.157222,9/22/2015,73
EAST LEVEE CREEK,34.0324,-90.1202,9/10/2015,73
TILLATOBA CREEK,34.001858,-90.127172,9/9/2015,73
Bo Bo Bayou,34.3111,-90.168196,8/27/2015,73
McIvor Drainag,34.37055556,-90.03047222,8/28/2015,73
Sherman Creek,34.104049,-90.078565,8/18/2015,73
UT Yalobusha,33.006111,-90.32224,8/20/2015,73
Pelucia Creek,33.466093,-90.132436,9/22/2015,73
Catfish Bayou,33.430299,-90.111428,9/23/2015,73
N Fk Tillatoba Creek,34.008808,-90.068819,9/2/2015,73
Asclamore Creek,33.918056,-90.069444,9/9/2015,73
Cane Creek,33.75420111,-89.99650194,9/9/2015,73
JOHNSON CREEK,34.91524,-90.13489,8/27/2015,73
WHITES CREEK,34.84277778,-90.18452778,8/27/2015,74
ARKABUTLA CREEK,34.6096,-90.20633,8/19/2015,73
STRAYHORN CREEK,34.60419444,-90.20702778,8/19/2015,73
FANNEGUSHA CREEK,33.137856,-90.19789,9/23/2015,73
Tillatoba Creek,34.00180611,-90.12733306,9/10/2015,73
Asclamore Creek,33.83894389,-90.13288889,9/10/2015,73
SHELTON CREEK,34.15158333,-90.07397222,8/18/2015,73
Abiaca Creek,33.34,-90.151389,9/23/2015,73
LaSalle Bayou,30.4596111,-89.34538889,3/5/2014,65
UNT ROTTEN BAYOU,30.421282,-89.33789,3/17/2011,65
Bayou Laterre,30.44802446,-89.40436455,3/5/2014,65
Bayou La Terre,30.495917,-89.380694,3/5/2014,65
Big Brown Creek,34.62525,-88.44505556,2/13/2013,65
Big Cypress Creek,32.88002778,-90.05822222,1/8/2013,74
Casey Creek,34.480015,-88.49848,2/13/2013,65
Casey Creek,34.49785,-88.502667,2/13/2013,65
Donivan Creek,34.52172222,-88.54722222,2/13/2013,65
Eutaeutachee Creek,32.30774,-89.8402,1/8/2013,65
Little Brown Creek,34.62466667,-88.36391667,2/13/2013,65
Medlock Branch,34.75404,-88.99071,2/12/2013,65
Mill Creek,30.409443,-89.344011,3/5/2014,75
Muddy Creek,34.89297222,-88.89827778,2/14/2013,65
North Tippah Creek,34.77309,-89.00271,2/12/2013,65
Palmer Creek,30.59583333,-89.06994444,1/23/2013,65
Pellaphalia Creek,32.70545,-89.72139,3/5/2013,65
Riverdale Creek,33.80158,-89.81122,3/6/2013,74
Rotten Bayou,30.42101,-89.34423,1/24/2013,65
South Tippah Creek,34.70914,-89.03217,2/12/2013,65
West Creek,30.64241667,-89.10869444,1/23/2013,65
Wolf Creek,34.64069444,-88.65013889,2/13/2013,65
Ashlog Creek,32.27194444,-89.76036111,2/28/2012,65
Brush Creek,32.34736,-89.92557,2/8/2012,65
Line Creek,32.30033333,-89.70702778,1/25/2012,65
Little Cane Creek,34.96514,-88.6091,2/2/2012,65
Muddy Creek,34.84757,-88.92343,2/3/2012,65
Mulberry Creek,32.33253,-89.73708,2/8/2012,65
UT to North Prong Muddy Creek,34.8479,-88.9654,2/3/2012,65
Pelahatchie Creek,32.31139,-89.74946,2/28/2012,65
Pierce Creek,32.31787,-89.78132,1/25/2012,65
Riley Creek,32.39717,-89.88577,2/23/2012,65
Tarebreeches Creek,34.927194,-88.666111,2/2/2012,65
UT to North Prong Muddy Trib 1,34.85692,-88.96558,2/3/2012,65
Rotten Bayou Trib 1,30.384389,-89.381108,1/19/2012,65
Big Sunflower River,34.04121,-90.62635,8/29/2012,73
Big Sunflower River,33.94969,-90.62904,9/5/2012,73
Clear Creek,33.62813,-90.95459,9/6/2012,73
Coldwater River,34.69731,-90.2299,9/5/2012,73
Dougherty Bayou,33.72424,-90.58012,8/29/2012,73
Dowling Bayou,32.94371,-90.7278,8/21/2012,73
Edward Bayou,34.01155,-90.79787,8/28/2012,73
Grancius Bayou,33.15975,-90.9481,8/28/2012,73
Hushpuckena River,33.97263,-90.67267,8/29/2012,73
Hushpuckena River,34.01035,-90.79575,8/29/2012,73
Hushpuckena River,34.09044,-90.74854,8/28/2012,73
Muddy Bayou,34.02953,-90.22508,8/28/2012,73
Otter Bayou,32.99815,-90.92706,8/21/2012,73
Rolling Fork Creek,32.88697,-90.83549,8/22/2012,73
Snake Creek,33.89766,-90.84406,8/29/2012,73
Staten Brake,33.90366,-90.37969,8/28/2012,73
Trib to Steele Bayou,32.59936,-90.96478,8/22/2012,73
White Oak Bayou,34.64459,-90.33543,9/5/2012,73
Beaver Dam Bayou,33.47886,-90.61889,9/11/2013,73
Big Sunflower River,33.54902,-90.54296,9/11/2013,73
Bogue Phalia,33.44744,-90.85888,9/19/2013,73
Dugan Bayou,33.72339,-90.44503,9/10/2013,73
Jones Bayou,33.66549,-90.61847,9/12/2013,73
Porter Bayou trib no. 1,33.57102,-90.74758,9/12/2013,73
Vaney Creek,33.81343,-90.13103,9/10/2013,73
Wild Bill Bayou,33.79631,-90.4805,9/10/2013,73
